{[
 	{  "name" : "青葉公民館・老人いこいの家",  "kana" : "あおばこうみんかん・ろうじんいこいのいえ",  "address" : "福岡県福岡市東区青葉3丁目10-8",  "postal_code" : "813-0025",  "latitude" : "33.644822",  "longitude" : "130.463179",  "tel" : "092-691-9799",  },
	{  "name" : "香椎公民館・老人いこいの家",  "kana" : "かしいこうみんかん・ろうじんいこいのいえ",  "address" : "福岡県福岡市東区香椎駅前2丁目17-19",  "postal_code" : "813-0001",  "latitude" : "33.65967",  "longitude" : "130.440402",  "tel" : "092-661-3258",  },
	{  "name" : "香椎下原公民館",  "kana" : "かしいしもばるこうみんかん",  "address" : "福岡県福岡市東区下原1丁目4-2",  "postal_code" : "813-0002",  "latitude" : "33.670797",  "longitude" : "130.455811",  "tel" : "092-682-6334",  },
	{  "name" : "香椎浜公民館",  "kana" : "かしいはまこうみんかん",  "address" : "福岡県福岡市東区香椎浜2丁目4-31",  "postal_code" : "813-0016",  "latitude" : "33.654326",  "longitude" : "130.426039",  "tel" : "092-682-1697",  },
	{  "name" : "香椎東公民館・老人いこいの家",  "kana" : "かしいひがしこうみんかん・ろうじんいこいのいえ",  "address" : "福岡県福岡市東区香椎台1丁目3-7",  "postal_code" : "813-0014",  "latitude" : "33.651863",  "longitude" : "130.454176",  "tel" : "092-672-7098",  },
	{  "name" : "香住丘公民館",  "kana" : "かすみがおかこうみんかん",  "address" : "福岡県福岡市東区香住ヶ丘1丁目27-1",  "postal_code" : "813-0003",  "latitude" : "33.670005",  "longitude" : "130.435593",  "tel" : "092-681-4704",  },
	{  "name" : "香陵公民館・老人いこいの家",  "kana" : "こうりょうこうみんかん・ろうじんいこいのいえ",  "address" : "福岡県福岡市東区香椎浜1丁目8-7",  "postal_code" : "813-0016",  "latitude" : "33.654102",  "longitude" : "130.432333",  "tel" : "092-663-4485",  },
	{  "name" : "西戸崎公民館",  "kana" : "さいとざきこうみんかん",  "address" : "福岡県福岡市東区西戸崎5丁目1-1",  "postal_code" : "811-0321",  "latitude" : "33.650464",  "longitude" : "130.35207",  "tel" : "092-603-0201",  },
	{  "name" : "志賀公民館",  "kana" : "しかこうみんかん",  "address" : "福岡県福岡市東区大字志賀島736-60",  "postal_code" : "811-0323",  "latitude" : "33.662852",  "longitude" : "130.313135",  "tel" : "092-603-6706",  },
	{  "name" : "城浜公民館・老人いこいの家",  "kana" : "しろはまこうみんかん・ろうじんいこいのいえ",  "address" : "福岡県福岡市東区城浜団地32-2",  "postal_code" : "813-0045",  "latitude" : "33.649484",  "longitude" : "130.422139",  "tel" : "092-671-6181",  },
	{  "name" : "多々良公民館・老人いこいの家",  "kana" : "たたらこうみんかん・ろうじんいこいのいえ",  "address" : "福岡県福岡市東区多々良1丁目56-2",  "postal_code" : "813-0033",  "latitude" : "33.630304",  "longitude" : "130.458591",  "tel" : "092-691-3767",  },
	{  "name" : "千早公民館・老人いこいの家",  "kana" : "ちはやこうみんかん・ろうじんいこいのいえ",  "address" : "福岡県福岡市東区千早6丁目2-21-101",  "postal_code" : "813-0044",  "latitude" : "33.655162",  "longitude" : "130.439133",  "tel" : "092-661-3240",  },
	{  "name" : "千早西公民館",  "kana" : "ちはやにしこうみんかん",  "address" : "福岡県福岡市東区千早3丁目3-3",  "postal_code" : "813-0044",  "latitude" : "33.650062",  "longitude" : "130.433305",  "tel" : "092-683-3933",  },
	{  "name" : "照葉公民館・老人いこいの家",  "kana" : "てりはこうみんかん・ろうじんいこいのいえ",  "address" : "福岡県福岡市東区香椎照葉2丁目2-12",  "postal_code" : "813-0017",  "latitude" : "33.667685",  "longitude" : "130.423799",  "tel" : "092-674-3101",  },
	{  "name" : "名島公民館・老人いこいの家",  "kana" : "なじまこうみんかん・ろうじんいこいのいえ",  "address" : "福岡県福岡市東区名島2丁目42-26",  "postal_code" : "813-0043",  "latitude" : "33.643827",  "longitude" : "130.427559",  "tel" : "092-681-0155",  },
	{  "name" : "奈多公民館・老人いこいの家",  "kana" : "なたこうみんかん・ろうじんいこいのいえ",  "address" : "福岡県福岡市東区奈多２丁目14-2",  "postal_code" : "813-0204",  "latitude" : "33.688707",  "longitude" : "130.411675",  "tel" : "092-607-4697",  },
	{  "name" : "箱崎公民館・老人いこいの家",  "kana" : "はこざきこうみんかん・ろうじんいこいのいえ",  "address" : "福岡県福岡市東区箱崎1丁目27-17",  "postal_code" : "812-0053",  "latitude" : "33.616944",  "longitude" : "130.423652",  "tel" : "092-651-7708",  },
	{  "name" : "筥松公民館",  "kana" : "はこまつこうみんかん",  "address" : "福岡県福岡市東区筥松1丁目21-1",  "postal_code" : "812-0061",  "latitude" : "33.615472",  "longitude" : "130.434179",  "tel" : "092-621-4999",  },
	{  "name" : "八田公民館・老人いこいの家",  "kana" : "はったこうみんかん・ろうじんいこいのいえ",  "address" : "福岡県福岡市東区八田2丁目16-20",  "postal_code" : "813-0031",  "latitude" : "33.636257",  "longitude" : "130.45813",  "tel" : "092-681-5371",  },
]};
